,City,Cloudiness,Country,Date,Humidity,Lat,Lng,Max Temp,Wind Speed
0,Kunashak,0,RU,1558563669,49,55.7,61.55,48.2,6.71
1,Nome,90,US,1558563201,74,30.04,-94.42,86.0,13.87
2,Salalah,20,OM,1558563400,83,17.01,54.1,84.2,2.24
3,Victoria,75,BN,1558563226,88,5.28,115.24,80.6,2.24
4,Torbay,90,CA,1558563441,100,47.66,-52.73,36.0,24.16
5,Mount Gambier,90,AU,1558563823,100,-37.83,140.78,39.2,6.93
6,Kareli,0,IN,1558563823,17,22.93,79.06,95.81,11.68
7,Zhigansk,100,RU,1558563653,66,66.77,123.37,40.55,6.89
8,Tuktoyaktuk,40,CA,1558563404,47,69.44,-133.03,55.4,16.11
9,Kapaa,1,US,1558563414,69,22.08,-159.32,82.4,10.29
10,Saskylakh,98,RU,1558563405,89,71.97,114.09,29.75,7.99
11,San Cristobal,40,EC,1558563380,55,-0.39,-78.55,68.0,13.87
12,Tura,100,IN,1558563424,91,25.52,90.21,76.55,5.08
13,Kruisfontein,0,ZA,1558563824,83,-34.0,24.73,50.27,4.23
14,Butaritari,73,KI,1558563307,70,3.07,172.79,83.95,6.02
15,Tasiilaq,31,GL,1558563122,65,65.61,-37.64,41.0,6.93
16,Mar del Plata,99,AR,1558563400,61,-46.43,-67.52,54.77,24.58
17,Marsa Matruh,0,EG,1558563824,64,31.35,27.25,75.2,6.93
18,Atuona,21,PF,1558563306,75,-9.8,-139.03,82.33,11.7
19,Mataura,1,NZ,1558563384,82,-46.19,168.86,53.01,1.01
20,Punta Arenas,90,CL,1558563259,93,-53.16,-70.91,46.4,4.7
21,Khandyga,100,RU,1558563825,89,62.65,135.58,47.21,4.74
22,Jamestown,0,AU,1558563393,57,-33.21,138.6,60.17,7.45
23,Hilo,40,US,1558563309,48,19.71,-155.08,84.2,11.41
24,Galesong,20,ID,1558563401,100,-5.32,119.37,75.2,1.12
25,Ceuta,0,MX,1558563825,44,23.9,-106.93,86.0,8.01
26,Muravlenko,97,RU,1558563825,84,63.79,74.5,28.67,4.74
27,Fairview,1,US,1558563827,26,40.81,-74.0,77.0,2.08
28,Maltahohe,100,NA,1558563827,26,-24.83,16.98,64.13,4.5
29,Evanston,1,US,1558563827,37,42.04,-87.69,84.2,19.46
30,Sorland,20,NO,1558563514,75,67.67,12.69,44.6,21.92
31,Banda Aceh,68,ID,1558563454,70,5.56,95.32,84.47,6.69
32,Bowen,40,AU,1558563481,88,-20.01,148.25,72.0,9.17
33,Esperance,40,TT,1558563431,78,10.24,-61.45,84.0,12.75
34,Syava,100,RU,1558563828,97,58.01,46.32,47.21,4.41
35,Puerto Ayora,75,EC,1558563408,78,-0.74,-90.35,78.8,12.75
36,Iqaluit,75,CA,1558563424,93,63.75,-68.52,37.0,16.11
37,Chuy,45,UY,1558563413,66,-33.69,-53.46,63.59,10.87
38,Rikitea,15,PF,1558563386,73,-23.12,-134.97,75.47,10.92
39,Busselton,90,AU,1558563386,70,-33.64,115.35,48.0,13.94
40,Shamary,72,RU,1558563603,65,57.34,58.22,41.81,4.41
41,Tekeli,40,KZ,1558563829,56,44.86,78.76,46.13,6.29
42,Hobart,75,AU,1558563269,62,-42.88,147.33,55.0,8.05
43,Avarua,100,CK,1558563441,94,-21.21,-159.78,75.2,14.99
44,Emerald,0,AU,1558563829,76,-23.53,148.16,63.0,8.05
45,New Norfolk,75,AU,1558563391,62,-42.78,147.06,55.0,8.05
46,Potsdam,0,DE,1558563829,76,52.4,13.06,57.0,8.05
47,Sergeyevka,0,KZ,1558563830,69,53.88,67.42,41.81,5.37
48,Leningradskiy,100,RU,1558563398,86,69.38,178.42,27.95,2.71
49,Albany,75,US,1558563401,30,42.65,-73.75,71.01,4.7
50,Mareeba,75,AU,1558563504,88,-16.99,145.42,73.0,14.99
51,Havoysund,75,NO,1558563830,74,71.0,24.66,33.8,5.82
52,Ushuaia,90,AR,1558563399,86,-54.81,-68.31,37.4,17.22
53,Bredasdorp,84,ZA,1558563390,87,-34.53,20.04,53.6,4.7
54,Parfino,40,RU,1558563831,85,57.97,31.65,59.45,3.24
55,Saint-Pierre,0,FR,1558563496,76,48.95,4.24,55.4,3.36
56,Itapora,61,BR,1558563831,88,-22.08,-54.79,71.69,6.46
57,Castro,75,CL,1558563394,87,-42.48,-73.76,44.6,5.82
58,Cairns,75,AU,1558563181,88,-16.92,145.77,72.0,14.99
59,Berdigestyakh,97,RU,1558563691,74,62.1,126.7,43.61,3.83
60,Ormond Beach,40,US,1558563771,65,29.29,-81.06,87.01,9.17
61,Namibe,0,AO,1558563832,81,-15.19,12.15,69.17,11.25
62,Ribeira Grande,0,PT,1558563387,85,38.52,-28.7,63.41,10.4
63,Haines Junction,0,CA,1558563832,31,60.75,-137.51,59.63,10.42
64,Sao Joao da Barra,0,BR,1558563492,88,-21.64,-41.05,77.0,5.82
65,Tiksi,0,RU,1558563188,91,71.64,128.87,25.27,7.83
66,Bluff,0,AU,1558563384,81,-23.58,149.07,58.91,9.66
67,Cayenne,90,GF,1558563417,94,4.94,-52.33,75.2,1.12
68,Nanakuli,1,US,1558563625,58,21.39,-158.15,87.8,6.93
69,Yulara,0,AU,1558563172,71,-25.24,130.99,51.8,4.7
70,Thompson,75,CA,1558563386,40,55.74,-97.86,51.8,9.17
71,Deutschlandsberg,20,AT,1558563833,76,46.81,15.21,57.0,2.24
72,Khatanga,100,RU,1558563190,93,71.98,102.47,28.33,21.63
73,Port Alfred,0,ZA,1558563387,84,-33.59,26.89,55.0,4.0
74,Kontagora,27,NG,1558563833,48,10.4,5.47,88.07,3.24
75,Sinnamary,100,GF,1558563834,87,5.38,-52.96,78.35,7.7
76,Cockburn Town,4,TC,1558563834,74,21.46,-71.14,82.13,8.14
77,Kaspiysk,75,RU,1558563834,93,42.88,47.64,60.8,8.95
78,Lazaro Cardenas,5,MX,1558563437,9,28.39,-105.62,96.8,23.04
79,Faya,40,SA,1558563397,67,18.39,42.45,62.6,6.93
80,Mahebourg,75,MU,1558563140,83,-20.41,57.7,75.2,10.13
81,Fortuna,0,ES,1558563835,77,38.18,-1.13,68.0,1.12
82,Sao Felix do Xingu,83,BR,1558563442,95,-6.64,-51.99,75.83,4.03
83,Quzhou,1,CN,1558563835,75,28.97,118.86,61.25,0.89
84,Rio Gallegos,75,AR,1558563588,100,-51.62,-69.22,46.4,2.24
85,Ponta do Sol,22,BR,1558563454,79,-20.63,-46.0,64.49,3.83
86,Mogwase,0,ZA,1558563836,46,-25.28,27.22,58.73,2.68
87,Belaya Gora,100,RU,1558563497,77,68.54,146.19,40.55,18.25
88,Qaanaaq,100,GL,1558563385,78,77.48,-69.36,31.19,3.8
89,Pilibhit,0,IN,1558563836,21,28.63,79.81,89.69,3.6
90,Provideniya,75,RU,1558563437,86,64.42,-173.23,33.8,4.47
91,Lebu,100,ET,1558563405,86,8.96,38.73,59.27,2.51
92,La Ronge,20,CA,1558563836,37,55.1,-105.3,68.0,11.41
93,Khani,92,GE,1558563837,100,41.96,42.96,59.0,6.93
94,Taksimo,65,RU,1558563837,75,56.36,114.84,38.57,5.82
95,Kavaratti,10,IN,1558563409,78,10.57,72.64,85.01,7.65
96,Nanortalik,93,GL,1558563409,74,60.14,-45.24,40.55,1.5
97,Katherine,70,AU,1558563837,77,-14.47,132.26,64.4,6.89
98,Monduli,72,TZ,1558563837,92,-3.3,36.45,62.51,3.24
99,Srednekolymsk,100,RU,1558563476,64,67.46,153.71,47.39,22.57
100,Barrow,0,AR,1558563391,46,-38.31,-60.23,52.25,6.44
101,Upernavik,0,GL,1558563421,82,72.79,-56.15,33.89,5.14
102,Neryungri,100,RU,1558563838,96,56.66,124.71,43.61,5.19
103,Takoradi,100,GH,1558563838,91,4.89,-1.75,77.81,4.03
104,Yuzhno-Kurilsk,0,RU,1558563838,85,44.03,145.86,49.01,7.85
105,Hermanus,94,ZA,1558563387,96,-34.42,19.24,57.99,1.01
106,Lorengau,4,PG,1558563417,90,-2.02,147.27,78.53,0.89
107,Mafeteng,2,LS,1558563839,51,-29.82,27.24,51.53,4.34
108,Kimbe,15,PG,1558563839,86,-5.56,150.15,76.73,3.44
109,Saint George,40,GR,1558563428,59,39.45,22.34,60.8,4.38
110,Nikolskoye,40,RU,1558563421,82,59.7,30.79,60.8,4.47
111,Cherskiy,69,RU,1558563413,78,68.75,161.3,33.89,8.97
112,Melipilla,0,CL,1558563840,30,-33.69,-71.21,64.99,6.93
113,Klaksvik,100,FO,1558563396,87,62.23,-6.59,42.8,19.46
114,Kiama,0,AU,1558563840,100,-34.67,150.86,66.99,8.05
115,East London,0,ZA,1558563365,74,-33.02,27.91,53.87,3.8
116,Miri,56,NG,1558563840,42,10.31,9.75,85.55,2.24
117,Port Macquarie,0,AU,1558563265,87,-31.43,152.91,55.99,2.3
118,Sterlibashevo,100,RU,1558563841,97,53.44,55.26,48.47,3.13
119,Goderich,100,CA,1558563435,69,43.74,-81.71,59.0,13.0
120,Ostrovnoy,71,RU,1558563393,77,68.05,39.51,33.17,14.43
121,Dingle,93,PH,1558563391,81,11.0,122.67,78.17,2.48
122,Shirokiy,100,RU,1558563841,59,53.87,39.17,60.01,7.14
123,Kodiak,1,US,1558563394,22,39.95,-94.76,73.99,11.41
124,Port Elizabeth,1,US,1558563418,43,39.31,-74.98,77.0,6.93
125,Shitanjing,99,CN,1558563441,15,39.23,106.34,72.0,3.0
126,Hami,0,CN,1558563842,13,42.84,93.51,76.19,13.4
127,Tocopilla,0,CL,1558563466,85,-22.09,-70.2,63.59,19.86
128,Bethel,40,US,1558563410,66,60.79,-161.76,57.2,14.99
129,Guanica,90,PR,1558563809,83,17.97,-66.91,82.99,10.29
130,Okakarara,87,NA,1558563842,22,-20.59,17.46,63.59,3.96
131,Vaini,58,IN,1558563385,91,15.34,74.49,77.63,0.74
132,Elizabeth City,1,US,1558563649,40,36.3,-76.22,73.99,11.41
133,Broome,0,GB,1558563843,76,52.47,1.45,57.99,9.17
134,Yellowknife,20,CA,1558563389,27,62.45,-114.38,51.01,8.05
135,Lompoc,75,US,1558563250,59,34.64,-120.46,70.0,16.11
136,Tromso,40,NO,1558563590,69,69.65,18.96,39.99,14.99
137,Beringovskiy,0,RU,1558563479,79,63.05,179.32,35.87,2.95
138,Pevek,0,RU,1558563406,83,69.7,170.27,24.89,4.14
139,Geraldton,90,CA,1558563417,93,49.72,-86.95,46.4,9.17
140,Scarborough,0,GB,1558563844,76,54.28,-0.41,55.0,4.7
141,Hukuntsi,0,BW,1558563844,21,-23.98,21.76,64.67,8.5
142,Ulladulla,0,AU,1558563845,100,-35.36,150.48,61.0,8.05
143,Faanui,78,PF,1558563417,74,-16.48,-151.75,82.13,8.25
144,Abu Kamal,88,SY,1558563845,22,34.45,40.92,88.07,17.56
145,Ahome,5,MX,1558563601,51,25.92,-109.18,84.0,14.99
146,Zaysan,88,KZ,1558563432,76,47.47,84.87,42.53,8.43
147,Yeppoon,75,AU,1558563418,77,-23.13,150.74,66.2,10.29
148,Muyuka,40,CM,1558563846,100,4.29,9.41,78.8,2.95
149,Alpena,1,US,1558563631,58,45.06,-83.43,66.99,12.75
150,Giyani,0,ZA,1558563846,62,-23.32,30.73,63.77,2.62
151,Dobson,90,US,1558563332,69,36.4,-80.72,79.0,4.7
152,Vikhorevka,100,RU,1558563846,77,56.12,101.17,39.2,1.97
153,Ilulissat,5,GL,1558563490,74,69.22,-51.1,37.4,8.05
154,Genhe,16,CN,1558563846,51,50.78,121.52,44.87,3.0
155,Cape Town,0,ZA,1558563404,93,-33.93,18.42,60.01,4.7
156,Severo-Kurilsk,100,RU,1558563210,94,50.68,156.12,40.75,32.7
157,Necochea,0,AR,1558563847,40,-38.55,-58.74,48.99,3.0
158,Prince Rupert,90,CA,1558563847,81,54.32,-130.32,53.6,9.17
159,Georgetown,75,GY,1558563402,74,6.8,-58.16,84.2,13.87
160,Pitimbu,40,BR,1558563847,88,-7.47,-34.81,78.8,4.7
161,Longyearbyen,0,NO,1558563174,74,78.22,15.63,25.81,6.29
162,Marzuq,100,YE,1558563425,42,14.4,46.47,77.99,4.94
163,Praia,0,BR,1558563848,77,-20.25,-43.81,71.6,3.36
164,Salaga,100,GH,1558563848,44,8.55,-0.52,90.95,5.59
165,Grand Gaube,75,MU,1558563480,83,-20.01,57.66,75.2,6.93
166,Richards Bay,0,ZA,1558563849,76,-28.77,32.06,71.87,19.66
167,Mana,40,RS,1558563849,100,43.52,20.24,57.2,3.36
168,Arraial do Cabo,0,BR,1558563411,88,-22.97,-42.02,75.2,3.36
169,San Vicente,75,SV,1558563850,79,13.64,-88.78,84.2,8.05
170,Martinopolis,0,BR,1558563585,34,-22.15,-51.17,80.6,1.79
171,Miedzyrzecz,90,PL,1558563850,100,52.44,15.58,51.8,9.17
172,Sangar,100,RU,1558563851,58,63.92,127.47,49.91,4.12
173,Hithadhoo,100,MV,1558563231,73,-0.6,73.08,83.95,12.33
174,Tournon-sur-Rhone,20,FR,1558563851,54,45.07,4.83,59.0,4.7
175,Mitchell,90,US,1558563851,81,43.71,-98.03,53.6,8.05
176,Puerto El Triunfo,40,SV,1558563852,74,13.27,-88.55,87.8,3.36
177,Luziania,40,BR,1558563852,61,-16.25,-47.95,77.0,5.82
178,Lavrentiya,99,RU,1558563852,91,65.58,-170.99,31.37,4.41
179,Maumere,100,ID,1558563852,78,-8.63,122.22,80.51,8.14
180,Le Port,1,FR,1558563853,44,42.87,1.37,57.99,4.68
181,Dharan,14,NP,1558563853,84,26.81,87.28,65.57,4.29
182,Norman Wells,75,CA,1558563465,48,65.28,-126.83,60.8,8.05
183,San Patricio,72,PY,1558563436,90,-26.98,-56.83,64.13,6.42
184,Lasa,20,CY,1558563424,52,34.92,32.53,71.6,2.24
185,Mbengwi,99,CM,1558563853,86,6.0,10.01,63.23,4.07
186,Tuatapere,5,NZ,1558563389,82,-46.13,167.69,53.01,1.01
187,Chokurdakh,100,RU,1558563413,85,70.62,147.9,25.43,21.0
188,Natal,20,BR,1558563300,74,-5.81,-35.21,82.4,5.82
189,Nuuk,20,GL,1558563854,61,64.17,-51.74,48.2,6.93
190,Ahuimanu,20,US,1558563854,62,21.44,-157.84,86.0,11.41
191,Saint-Philippe,1,CA,1558563403,37,45.36,-73.48,68.0,5.82
192,Vestmannaeyjar,2,IS,1558563190,85,63.44,-20.27,48.49,5.46
193,Dikson,83,RU,1558563399,82,73.51,80.55,22.91,7.31
194,Marystown,69,CA,1558563855,69,47.17,-55.16,44.15,20.49
195,Carnarvon,0,ZA,1558563389,24,-30.97,22.13,50.99,2.55
196,Chas,0,IN,1558563855,30,23.63,86.18,88.07,1.57
197,Yar-Sale,71,RU,1558563438,87,66.83,70.83,19.31,4.29
198,Zhangye,100,CN,1558563855,36,38.94,100.46,62.69,8.08
199,Itarema,100,BR,1558563514,87,-2.92,-39.92,78.35,5.44
200,Nouadhibou,0,MR,1558563855,77,20.93,-17.03,66.2,17.22
201,Cabo San Lucas,5,MX,1558563166,44,22.89,-109.91,86.0,10.29
202,Junction City,1,US,1558563856,49,39.03,-96.83,72.0,10.29
203,Sitka,74,US,1558563452,50,37.17,-99.65,71.01,4.0
204,Guamuchil,0,MX,1558563856,49,25.47,-108.1,88.0,4.0
205,Constitucion,75,MX,1558563410,2,23.99,-104.67,86.0,21.92
206,Honningsvag,75,NO,1558563857,74,70.98,25.97,33.8,12.75
207,San Andres,100,PH,1558563857,88,13.32,122.68,79.07,2.3
208,Kungurtug,100,RU,1558563461,76,50.6,97.53,47.39,5.73
209,Vao,100,EE,1558563495,79,59.1,26.19,57.47,1.92
210,Mweka,100,CD,1558563442,91,-4.85,21.56,74.03,2.89
211,Dicabisagan,59,PH,1558563857,87,17.08,122.42,75.47,2.73
212,Luan,0,CH,1558563858,62,46.36,6.98,57.99,5.66
213,Hasaki,75,JP,1558563362,72,35.73,140.83,63.0,3.36
214,San Quintin,56,PH,1558563301,82,17.54,120.52,77.29,3.42
215,Oum Hadjer,77,TD,1558563858,5,13.3,19.7,96.17,7.49
216,Dagana,0,MR,1558563858,50,16.52,-15.51,76.73,16.2
217,Luwuk,100,ID,1558563388,99,-0.95,122.79,66.11,3.27
218,Hirara,75,JP,1558563706,83,24.8,125.28,71.6,2.24
219,Balikpapan,100,ID,1558563859,98,-1.24,116.86,71.69,2.17
220,Kaitangata,1,NZ,1558563400,65,-46.28,169.85,55.0,5.99
221,Amalapuram,9,IN,1558563462,89,16.58,82.0,82.49,6.2
222,Fagersta,92,SE,1558563859,87,60.0,15.79,60.8,5.82
223,Berlevag,75,NO,1558563860,69,70.86,29.09,35.6,13.87
224,Tortoli,5,IT,1558563860,59,39.93,9.66,60.8,13.87
225,Ekhabi,96,RU,1558563860,96,53.51,142.97,38.57,5.37
226,Katsuura,0,JP,1558563860,63,33.93,134.5,70.0,6.93
227,Avera,1,US,1558563860,34,33.19,-82.53,95.0,9.17
228,Yerbogachen,95,RU,1558563861,77,61.28,108.01,41.81,8.75
229,Colares,20,PT,1558563861,87,38.8,-9.45,64.4,13.87
230,Meulaboh,98,ID,1558563508,86,4.14,96.13,80.33,10.38
231,Andros Town,40,BS,1558563444,65,24.73,-77.79,82.4,12.75
232,Acapulco,75,MX,1558563460,70,16.86,-99.88,84.2,10.29
233,Port Lincoln,0,AU,1558563462,77,-34.72,135.86,62.51,5.32
234,Kavieng,0,PG,1558563247,77,-2.57,150.8,82.69,5.7
235,Urengoy,100,RU,1558563862,89,65.96,78.37,24.71,8.55
236,Omboue,45,GA,1558563429,84,-1.57,9.26,80.15,13.22
237,Sumkino,81,RU,1558563862,61,58.11,68.32,37.49,4.74
238,Borger,100,NL,1558563862,75,52.92,6.79,52.0,1.12
239,Cidreira,11,BR,1558563390,82,-30.17,-50.22,67.37,11.5
240,Tazovskiy,53,RU,1558563514,93,67.47,78.7,19.85,10.74
241,Barentu,75,ER,1558563863,28,15.11,37.59,88.61,6.58
242,Souillac,0,FR,1558563863,63,45.6,-0.6,62.6,3.36
243,Byron Bay,90,AU,1558563863,82,-28.65,153.62,71.01,5.82
244,Matara,1,PE,1558563466,30,-13.74,-72.9,56.93,9.91
245,Zeya,84,RU,1558563490,74,53.74,127.27,43.25,2.39
246,Dondo,0,MZ,1558563864,88,-19.62,34.74,71.6,2.24
247,San Ignacio,0,CL,1558563864,62,-36.8,-72.03,55.0,2.24
248,Luderitz,100,NA,1558563400,71,-26.65,15.16,57.2,12.75
249,Sivaki,7,RU,1558563438,74,52.63,126.75,45.95,4.83
250,Kupang,51,ID,1558563865,75,-10.16,123.6,80.87,15.64
251,Gamba,33,CN,1558563504,60,28.28,88.52,34.61,5.17
252,Saldanha,47,PT,1558563865,62,41.42,-6.55,63.59,6.31
253,Vostok,61,RU,1558563393,95,46.45,135.83,45.41,4.85
254,Shar,39,NG,1558563865,44,7.3,8.73,87.17,4.41
255,Miramar,40,CR,1558563865,78,10.09,-84.73,73.4,3.36
256,Nantucket,1,US,1558563428,44,41.28,-70.1,62.01,10.29
257,Okha,96,RU,1558563435,96,53.59,142.95,38.57,5.37
258,Kananga,100,CD,1558563866,88,-5.9,22.41,71.69,2.13
259,Bambous Virieux,75,MU,1558563433,83,-20.34,57.76,75.2,6.93
260,Tavricheskoye,75,RU,1558563866,75,54.59,73.64,41.0,6.71
261,Abu Samrah,52,SY,1558563867,27,35.3,37.18,78.35,10.56
262,Bilibino,21,RU,1558563867,88,68.06,166.44,24.53,3.96
263,Pisco,20,PE,1558563387,30,-13.71,-76.2,71.6,6.93
264,Puerto Colombia,75,CO,1558563867,74,10.99,-74.96,86.0,11.41
265,Airai,59,TL,1558563417,60,-8.93,125.41,74.21,7.74
266,Grindavik,0,IS,1558563867,87,63.84,-22.43,50.0,8.05
267,Lata,98,IN,1558563388,74,30.78,78.62,31.19,8.79
268,Labuhan,96,ID,1558563259,85,-2.54,115.51,75.67,2.24
269,Jonuta,20,MX,1558563868,37,18.08,-92.13,100.4,11.41
270,San Isidro,100,PH,1558563869,86,16.74,121.63,75.65,1.63
271,Golden,40,CA,1558563869,33,51.3,-116.96,69.8,3.36
272,The Valley,40,AI,1558563461,74,18.22,-63.06,82.4,8.05
273,Viedma,2,AR,1558563870,27,-40.81,-62.99,57.47,12.46
274,Miraflores,81,CO,1558563870,95,5.2,-73.14,60.71,3.76
275,Manica,0,MZ,1558563870,87,-18.94,32.88,60.8,3.65
276,Quatre Cocos,75,MU,1558563871,83,-20.21,57.76,75.2,6.93
277,Behbahan,0,IR,1558563711,35,30.59,50.24,71.6,5.35
278,Alyangula,79,AU,1558563462,100,-13.85,136.42,66.2,3.36
279,Talnakh,75,RU,1558563397,92,69.49,88.39,19.4,11.18
280,Shingu,0,JP,1558563871,62,33.72,135.99,50.81,3.44
281,Vung Tau,100,VN,1558563871,82,10.35,107.08,81.59,4.32
282,Adre,75,TD,1558563871,4,13.47,22.2,86.09,9.71
283,jatara,45,IN,1558563872,18,25.01,79.05,98.33,6.15
284,Shouguang,0,CN,1558563872,19,36.88,118.73,72.05,6.69
285,Never,82,RU,1558563872,74,53.98,124.16,45.05,3.6
286,Powell River,20,CA,1558563872,33,49.84,-124.52,79.0,4.7
287,Nadterechnoye,18,RU,1558563873,100,43.62,45.34,55.4,4.47
288,Axim,100,GH,1558563873,86,4.87,-2.24,79.97,4.72
289,Boende,100,CD,1558563873,97,-0.28,20.88,72.95,3.76
290,Jilin,1,CN,1558563873,63,43.84,126.54,50.99,3.87
291,Liuhe,62,CN,1558563873,42,42.28,125.73,54.95,9.84
292,Muroto,0,JP,1558563476,54,33.37,134.14,58.73,5.77
293,Dali,0,CN,1558563874,78,25.6,100.24,53.69,2.84
294,Chicama,20,PE,1558563875,83,-7.84,-79.15,69.8,9.17
295,Jojoima,78,SL,1558563875,95,7.88,-10.79,76.73,3.91
296,Jan Kempdorp,100,ZA,1558563875,31,-27.92,24.84,61.79,3.91
297,Baldone,0,LV,1558563875,93,56.74,24.39,63.0,1.12
298,Piterka,100,RU,1558563875,60,50.68,47.44,58.91,7.7
299,Narsaq,93,GL,1558563433,26,60.91,-46.05,57.2,29.97
300,Maniitsoq,0,GL,1558563458,50,65.42,-52.9,49.73,9.04
301,Saint-Joseph,90,FR,1558563876,88,43.56,6.97,62.6,2.24
302,Lisala,100,CD,1558563876,94,2.15,21.52,73.31,5.46
303,Rome,0,IT,1558563671,87,41.89,12.48,60.01,4.7
304,Babstovo,1,RU,1558563438,84,48.12,132.48,47.03,7.43
305,Port Moresby,90,PG,1558563877,94,-9.47,147.16,77.0,3.36
306,San Miguel,40,AR,1558563495,77,-34.54,-58.72,60.8,7.2
307,Lampa,0,CL,1558563877,30,-33.29,-70.87,59.0,6.93
308,Broken Hill,90,AU,1558563877,59,-31.97,141.45,62.6,6.93
309,Plettenberg Bay,0,ZA,1558563506,70,-34.05,23.37,53.87,3.2
310,Palmer,0,AU,1558563430,93,-34.85,139.16,61.0,6.93
311,Tecoanapa,75,MX,1558563439,70,16.99,-99.26,84.2,10.29
312,Los Andes,0,CL,1558563878,30,-32.83,-70.6,64.99,6.93
313,Port Blair,100,IN,1558563399,71,11.67,92.75,85.19,7.02
314,Teguise,40,ES,1558563442,72,29.06,-13.56,68.0,17.22
315,Poum,0,MK,1558563508,89,41.28,20.71,44.69,3.15
316,Nioro,0,GM,1558563879,20,13.79,-15.05,93.11,15.77
317,Uwajima,0,JP,1558563879,42,33.22,132.57,64.4,8.05
318,Harindanga,75,IN,1558563879,88,22.04,88.32,77.0,9.17
319,Sierpc,1,PL,1558563879,86,52.85,19.67,56.21,2.01
320,Grand-Bourg,90,GP,1558563879,74,15.88,-61.31,80.6,11.41
321,Balrampur,0,IN,1558563880,34,27.43,82.19,88.61,7.76
322,El Alto,75,BO,1558563880,29,-16.5,-68.19,51.8,10.29
323,Ola,100,RU,1558563881,90,59.58,151.3,38.75,12.95
324,Rawson,9,AR,1558563452,23,-43.3,-65.11,58.73,13.62
325,Rio Cuarto,0,AR,1558563881,93,-33.13,-64.35,44.6,4.34
326,Sterling,75,US,1558563882,46,39.0,-77.4,73.0,9.17
327,College,75,US,1558563882,42,64.86,-147.8,68.0,5.82
328,Wilmington,1,US,1558563613,35,39.75,-75.55,75.0,6.93
329,Burnie,50,AU,1558563435,92,-41.05,145.91,46.99,1.99
330,Purpe,95,RU,1558563882,86,64.48,76.69,25.0,1.01
331,Maniwaki,100,CA,1558563589,31,46.38,-75.98,65.57,4.99
332,Terney,20,RU,1558563883,86,45.05,136.61,47.93,5.21
333,Portland,40,US,1558563390,49,45.52,-122.67,75.0,4.7
334,Ponta Delgada,20,PT,1558563883,72,37.73,-25.67,62.6,5.82
335,Manokwari,80,ID,1558563883,84,-0.87,134.08,73.31,2.42
336,San Rafael del Sur,40,NI,1558563883,88,11.85,-86.44,80.6,11.41
337,Bonthe,98,SL,1558563414,85,7.53,-12.5,82.13,7.25
338,Buritizeiro,1,BR,1558563884,65,-17.37,-44.96,76.37,1.48
339,Santa Cruz,20,US,1558563885,52,36.97,-122.03,73.0,11.41
340,Anzio,0,IT,1558563885,87,41.45,12.63,60.01,4.7
341,Jumla,0,NP,1558563464,56,29.28,82.18,44.51,5.26
342,Oerlinghausen,0,DE,1558563885,76,51.96,8.66,54.0,3.36
343,Merauke,100,ID,1558563886,82,-8.49,140.4,81.05,21.79
344,Williston,20,US,1558563771,33,48.15,-103.62,66.99,13.87
345,Isangel,40,VU,1558563886,73,-19.55,169.27,77.0,11.41
346,Kita,75,JP,1558563886,55,35.76,139.74,71.01,12.75
347,Rio Grande,75,BR,1558563886,82,-32.03,-52.1,64.4,6.93
348,Yangambi,100,CD,1558563887,88,0.77,24.47,73.85,3.69
349,Nazas,12,MX,1558563887,6,25.22,-104.11,89.87,12.57
350,Prince George,20,CA,1558563610,37,53.92,-122.75,70.0,9.17
351,Qaqortoq,93,GL,1558563448,26,60.72,-46.03,57.2,29.97
352,Birao,61,CF,1558563887,27,10.3,22.78,90.95,3.71
353,Goma,100,CD,1558563888,96,-1.67,29.23,58.55,2.64
354,Vila Velha,0,BR,1558563463,83,-3.71,-38.6,81.0,6.93
355,Beyneu,77,KZ,1558563888,23,45.32,55.19,65.93,7.34
356,Plaridel,97,PH,1558563888,81,13.96,122.02,82.31,2.42
357,Marietta,40,US,1558563682,38,33.95,-84.55,91.99,11.41
358,Buena Vista,40,US,1558563889,24,38.84,-106.13,55.4,19.46
359,Flinders,0,AU,1558563889,100,-34.58,150.85,61.0,8.05
360,Guia de Isora,20,ES,1558563889,60,28.21,-16.78,69.8,13.87
361,Caravelas,8,BR,1558563464,79,-17.73,-39.27,77.27,5.68
362,Antalaha,84,MG,1558563890,99,-14.9,50.28,66.29,2.19
363,Kefamenanu,31,ID,1558563890,81,-9.45,124.48,70.25,6.08
364,Cosolapa,78,MX,1558563890,30,18.6,-96.68,82.31,8.88
365,Lagos,20,NG,1558563791,88,6.46,3.39,78.8,2.24
366,Kurkino,100,RU,1558563890,87,53.42,38.66,58.91,5.1
367,Kumta,100,IN,1558563891,79,14.42,74.4,84.11,6.4
368,Aklavik,40,CA,1558563122,39,68.22,-135.01,64.4,9.17
369,Westport,100,IE,1558563435,82,53.8,-9.52,54.0,4.14
370,Mangrol,100,IN,1558563891,21,25.33,76.51,97.79,1.72
371,Kununurra,0,AU,1558563891,40,-15.77,128.74,73.4,3.36
372,Seddon,0,NZ,1558563891,79,-41.67,174.07,54.0,5.17
373,Gouyave,20,GD,1558563892,74,12.16,-61.73,84.2,17.22
374,Paris,0,FR,1558563817,54,48.86,2.35,63.0,3.36
375,Vegueta,76,PE,1558563892,91,-11.02,-77.64,65.03,18.03
376,Mongo,100,CF,1558563892,48,4.83,22.92,80.33,2.13
377,Lenti,100,HU,1558563892,82,46.62,16.54,59.0,1.12
378,Galbshtadt,66,RU,1558563893,71,53.23,78.98,42.35,8.32
379,Tarko-Sale,100,RU,1558563893,86,64.92,77.78,25.0,1.01
380,Kirkuk,2,IQ,1558563893,22,35.47,44.4,86.81,4.09
381,Port Hardy,90,CA,1558563443,82,50.7,-127.42,55.4,11.41
382,Chapais,75,CA,1558563429,29,49.78,-74.86,62.6,3.36
383,Laguna,5,MX,1558563446,23,27.52,-110.01,87.8,16.11
384,Vokhma,100,RU,1558563893,93,58.93,46.76,51.35,5.46
385,Inhambane,1,MZ,1558563894,94,-23.87,35.38,65.75,2.44
386,Sattahip,40,TH,1558563894,88,12.67,100.9,84.99,2.24
387,Lakes Entrance,0,AU,1558563894,96,-37.88,147.99,39.99,3.2
388,Eminabad,75,PK,1558563894,44,32.04,74.25,82.4,16.11
389,Izacic,73,BA,1558563894,84,44.88,15.78,57.0,1.01
390,Pocoes,0,BR,1558563895,73,-14.53,-40.37,71.6,6.93
391,Saint Anthony,75,US,1558563895,34,43.97,-111.68,53.6,14.99
392,Pueblo,40,US,1558563895,37,38.25,-104.61,69.01,10.29
393,Margate,75,AU,1558563895,62,-43.03,147.26,55.0,8.05
394,Toamasina,40,MG,1558563896,94,-18.17,49.38,71.6,3.49
395,Anadyr,0,RU,1558563896,69,64.73,177.51,39.2,8.95
396,Dapdap,100,PH,1558563896,96,14.05,121.57,77.0,2.01
397,Houma,2,CN,1558563896,26,35.63,111.36,63.23,1.57
398,San Jose,30,PH,1558563709,77,15.79,120.99,79.43,1.19
399,Neenah,75,US,1558563896,50,44.19,-88.46,78.8,16.11
400,Nagamangala,99,IN,1558563897,62,12.82,76.75,80.15,7.07
401,Zelenoborsk,69,RU,1558563897,62,61.47,64.05,38.93,4.0
402,Los Llanos de Aridane,3,ES,1558563443,77,28.66,-17.92,68.0,16.11
403,Luganville,40,VU,1558563897,65,-15.51,167.18,77.0,9.17
404,Utena,78,LT,1558563897,81,55.5,25.6,60.17,0.27
405,Allen,75,US,1558563898,62,33.1,-96.67,90.0,16.11
406,Macas,20,EC,1558563898,65,-2.3,-78.12,78.8,8.05
407,Bandarbeyla,9,SO,1558563401,72,9.49,50.81,81.23,6.46
408,Northam,0,GB,1558563898,87,51.04,-4.21,53.01,4.7
409,Menongue,81,AO,1558563898,44,-14.66,17.68,66.47,0.76
410,Ileza,100,RU,1558563899,85,61.05,43.9,45.95,3.18
411,Coquimbo,0,CL,1558563489,67,-29.95,-71.34,62.01,9.17
412,San Felipe,0,CL,1558563899,38,-32.75,-70.73,54.0,3.2
413,Harrismith,1,ZA,1558563899,44,-28.27,29.13,50.99,4.72
414,Presidencia Roque Saenz Pena,94,AR,1558563899,83,-26.79,-60.44,60.53,8.14
415,Dalvik,75,SE,1558563900,93,57.79,14.13,52.0,11.41
416,Tokur,100,RU,1558563900,83,53.13,132.9,40.73,3.78
417,Touros,20,BR,1558563388,78,-5.2,-35.46,82.4,6.93
418,Amga,100,RU,1558563900,92,60.89,131.98,41.99,2.3
419,Bonavista,99,CA,1558563503,87,48.65,-53.11,36.0,13.0
420,Vila Franca do Campo,20,PT,1558563246,72,37.72,-25.43,62.6,5.82
421,Saint-Augustin,0,FR,1558563900,67,44.83,-0.61,63.0,3.36
422,Qiongshan,0,CN,1558563901,94,20.01,110.35,77.0,4.47
423,Innisfail,75,CA,1558563901,41,52.02,-113.95,64.4,6.93
424,Palairos,20,GR,1558563901,77,38.78,20.88,62.6,9.17
425,Ylojarvi,75,FI,1558563901,77,61.56,23.6,61.0,11.41
426,Pilar,0,AR,1558563902,72,-34.46,-58.91,60.8,2.24
427,Zaraza,100,VE,1558563902,45,9.35,-65.33,91.67,4.38
428,Baherden,100,TM,1558563902,57,38.44,57.43,55.13,8.75
429,Kamaishi,0,JP,1558563902,60,39.28,141.86,50.63,2.62
430,Mittagong,0,AU,1558563902,100,-34.45,150.45,61.0,8.05
431,Chiang Rai,0,TH,1558563903,94,19.9,99.84,73.4,4.7
432,Salinas,1,US,1558563903,52,36.67,-121.66,72.0,14.99
433,Chiredzi,0,ZW,1558563903,81,-21.05,31.67,62.15,1.7
434,Palembang,95,ID,1558563903,98,-2.99,104.76,74.03,2.59
435,Sandpoint,40,US,1558563903,32,48.28,-116.55,71.01,5.82
436,Pangai,75,TO,1558563430,88,-19.8,-174.35,77.0,20.8
437,Senneterre,90,CA,1558563904,27,48.39,-77.24,62.6,12.75
438,Lerwick,99,GB,1558563904,93,60.15,-1.15,48.2,4.7
439,Aswan,0,EG,1558563789,13,24.09,32.9,95.0,11.41
440,Plainview,1,US,1558563904,8,34.18,-101.71,90.0,20.8
441,Te Anau,35,NZ,1558563453,96,-45.41,167.72,41.99,3.22
442,Ucluelet,5,CA,1558563905,56,48.94,-125.55,79.0,9.17
443,Ler,0,NO,1558563905,63,63.2,10.3,66.2,8.05
444,Taltal,0,CL,1558563478,43,-25.41,-70.49,65.93,6.02
445,Odlabari,100,IN,1558563905,81,26.83,88.62,66.83,4.94
446,Xining,90,CN,1558563905,50,36.62,101.77,48.29,1.45
447,Sibu,75,MY,1558563905,94,2.29,111.83,77.0,2.19
448,Samarinda,100,ID,1558563906,98,-0.5,117.14,74.21,1.61
449,Ancud,75,CL,1558563403,87,-41.87,-73.83,44.6,5.82
450,Eureka,90,US,1558563458,72,40.8,-124.16,60.8,18.34
451,Shihezi,100,CN,1558563906,38,44.3,86.03,66.47,10.33
452,Buluang,75,PH,1558563906,88,10.47,123.98,78.8,4.5
453,Mayor Pablo Lagerenza,100,PY,1558563449,78,-19.93,-60.77,61.79,5.48
454,Sharanga,88,RU,1558563907,96,57.18,46.54,46.31,4.12
455,Ixtapa,75,MX,1558563491,65,20.71,-105.21,81.0,16.11
456,Marawi,100,PH,1558563907,84,8.0,124.29,77.0,7.0
457,Hofn,100,IS,1558563190,91,64.25,-15.21,38.41,6.49
458,Cap Malheureux,75,MU,1558563907,83,-19.98,57.61,75.2,6.93
459,Turbat,31,PK,1558563908,39,26.0,63.05,89.33,7.16
460,Husavik,100,CA,1558563421,64,50.56,-96.99,53.01,11.01
461,Batagay-Alyta,0,RU,1558563908,72,67.8,130.41,28.85,4.38
462,Merrill,90,US,1558563908,44,42.03,-121.6,61.0,11.41
463,Elat,100,CM,1558563908,98,2.91,11.16,69.17,1.34
464,Macusani,66,PE,1558563908,81,-14.07,-70.43,43.97,9.93
465,Awjilah,100,LY,1558563909,33,29.14,21.3,83.93,15.26
466,Karratha,0,AU,1558563495,19,-20.74,116.85,78.71,11.3
467,Brooks,100,CA,1558563909,26,50.57,-111.89,68.0,4.0
468,Tairua,0,NZ,1558563909,75,-37.02,175.85,61.0,4.23
469,Khovu-Aksy,4,RU,1558563909,64,51.13,93.72,45.77,5.61
470,Yelbarga,95,IN,1558563910,47,15.63,76.02,88.79,12.39
471,Sheksna,99,RU,1558563910,95,59.21,38.5,47.93,3.53
472,Prachuap Khiri Khan,100,TH,1558563910,99,11.81,99.79,71.69,2.37
473,Hrubieszow,18,PL,1558563910,95,50.8,23.89,52.43,5.53
474,Erzin,0,TR,1558563910,49,36.95,36.2,73.4,10.29
475,Yate,23,GB,1558563911,62,51.54,-2.41,57.99,4.7
476,Usinsk,100,RU,1558563911,73,66.0,57.56,29.39,8.88
477,Markova,0,RU,1558563911,71,52.21,104.21,51.01,4.47
478,Port-Cartier,90,CA,1558563911,47,50.03,-66.88,57.2,13.87
479,Papetoai,75,PF,1558563911,94,-17.5,-149.87,77.0,3.36
480,Galway,75,IE,1558563912,71,53.27,-9.05,55.4,3.36
481,Evensk,100,RU,1558563423,91,61.92,159.24,40.55,1.57
482,Iralaya,100,HN,1558563422,86,15.0,-83.23,80.87,9.69
483,Chichigalpa,40,NI,1558563912,74,12.57,-87.03,84.2,9.6
484,Akdepe,0,TM,1558563912,43,42.05,59.39,57.2,4.7
485,Bayir,0,TR,1558563912,72,37.27,28.22,66.2,2.24
486,Billings,75,US,1558563645,38,45.79,-108.5,60.8,12.75
487,Vanavara,1,RU,1558563913,82,60.35,102.28,36.41,6.13
488,Lagoa,0,PT,1558563426,52,37.14,-8.45,69.8,11.41
489,Wajir,95,KE,1558563913,73,1.75,40.07,79.97,18.07
490,Farafangana,0,MG,1558563913,97,-22.82,47.83,67.73,3.53
491,Channel-Port aux Basques,2,CA,1558563913,78,47.57,-59.14,41.09,27.0
492,Bud,92,NO,1558563914,82,62.91,6.91,55.4,13.87
493,Talcahuano,0,CL,1558563914,81,-36.72,-73.12,53.6,5.82
494,Buzuluk,88,RU,1558563914,93,52.79,52.25,55.13,5.91
495,Manggar,70,ID,1558563914,91,-2.88,108.27,77.45,3.58
496,Wuda,99,CN,1558563914,14,39.5,106.72,68.09,11.45
497,Pampa,90,US,1558563915,28,35.54,-100.96,82.4,11.41
498,Daru,78,SL,1558563915,95,7.99,-10.85,76.73,3.91
499,Pretoria,0,ZA,1558563706,71,-25.75,28.19,54.0,2.24
500,Port Augusta,40,AU,1558563428,93,-32.49,137.76,46.4,4.7
501,Magalia,75,US,1558563915,27,39.81,-121.58,77.0,23.04
502,Kingman,90,US,1558563792,41,35.19,-114.05,71.01,3.36
503,Boa Vista,97,BR,1558563637,71,2.82,-60.67,80.87,1.63
504,Gizo,0,IL,1558563916,39,31.8,34.94,82.99,1.12
505,Nizhniy Kuranakh,100,RU,1558563917,77,58.84,125.49,47.75,3.09
506,Hobyo,26,SO,1558563503,68,5.35,48.53,83.21,9.73
507,Alofi,75,NU,1558563229,83,-19.06,-169.92,77.0,13.87
508,Kailua,20,US,1558563917,62,21.39,-157.74,86.0,11.41
509,Sao Filipe,0,CV,1558563485,85,14.9,-24.5,73.13,22.82
510,Muromtsevo,20,RU,1558563918,67,56.37,75.24,39.29,6.04
511,Carazinho,75,BR,1558563918,88,-28.3,-52.79,62.6,5.82
512,Baghdad,0,IQ,1558563914,20,33.3,44.38,90.05,4.38
513,Jiayuguan,80,CN,1558563918,10,39.77,98.29,66.29,5.23
514,Muros,0,ES,1558563918,71,42.77,-9.06,57.99,4.32
515,Gravelbourg,75,CA,1558563918,22,49.88,-106.56,68.63,18.03
516,Nagua,90,DO,1558563919,88,19.37,-69.85,78.8,6.42
517,Ust-Kuyga,3,RU,1558563411,73,70.0,135.55,31.55,5.55
518,Puerto Escondido,20,MX,1558563412,66,15.86,-97.07,86.0,11.41
519,Suileng,0,CN,1558563919,87,47.25,127.08,45.77,2.13
520,Dzhebariki-Khaya,100,RU,1558563919,90,62.22,135.8,45.95,4.56
521,Griffith,0,AU,1558563920,93,-34.29,146.06,42.8,5.82
522,Dengzhou,0,CN,1558563920,48,32.69,112.08,67.73,0.69
523,High Prairie,100,CA,1558563920,48,55.43,-116.48,63.59,4.18
524,Tifton,1,US,1558563920,41,31.45,-83.51,93.2,4.7
525,Akom,100,GH,1558563920,91,6.86,-1.64,74.57,3.27
526,Whitehorse,75,CA,1558563443,39,60.72,-135.06,71.01,5.82
